[
  { "rota": 1, "ordem": 1,  "nome": "P1 - 6h10 | Cantinho da Viola",                                                        "latitude": -22.960995, "longitude": -48.404020, "obs": "" },
  { "rota": 1, "ordem": 2,  "nome": "P2 - Ponto Ônibus - Condomínio Alvorada",                                               "latitude": -22.955992342723256, "longitude": -48.41731646486665, "obs": "" },
  { "rota": 1, "ordem": 3,  "nome": "P3 - Recuo Ecoterapia na Gastão Dal Farra",                                             "latitude": -22.952421, "longitude": -48.421357, "obs": "" },
  { "rota": 1, "ordem": 4,  "nome": "P4 - Green Valley",                                                                     "latitude": -22.949694, "longitude": -48.427187, "obs": "" },
  { "rota": 1, "ordem": 5,  "nome": "P5 - 6h20 | Green Valley",                                                              "latitude": -22.949597, "longitude": -48.425725, "obs": "" },
  { "rota": 1, "ordem": 6,  "nome": "P6 - Aluna com deficiência — precisa de auxílio | Green Valley",                        "latitude": -22.950410, "longitude": -48.425552, "obs": "" },
  { "rota": 1, "ordem": 7,  "nome": "P7 - Green Valley",                                                                     "latitude": -22.952055, "longitude": -48.425514, "obs": "" },
  { "rota": 1, "ordem": 8,  "nome": "E1 - Elda | CTEEP Subestação energia",                                                  "latitude": -22.949673, "longitude": -48.438595, "obs": "" },
  { "rota": 1, "ordem": 9,  "nome": "E2 - 6h35 | Rafaela Benato | 24 de Maio",                                               "latitude": -22.922637, "longitude": -48.449429, "obs": "" },
  { "rota": 1, "ordem": 10, "nome": "E3 - Sophia Gabriel | COHAB 1",                                                         "latitude": -22.916377, "longitude": -48.441222, "obs": "" },
  { "rota": 1, "ordem": 11, "nome": "E4 - Serrinha | COHAB 1",                                                               "latitude": -22.914042, "longitude": -48.436888, "obs": "" },
  { "rota": 1, "ordem": 12, "nome": "E5 - APAE | YASMIN | Auxílio para descer e subir — levar até dentro da escola",        "latitude": -22.893865, "longitude": -48.453957, "obs": "" },
  { "rota": 1, "ordem": 13, "nome": "E6 - Américo",                                                                          "latitude": -22.897566, "longitude": -48.447883, "obs": "" }
]
