{
  "id": 1,
  "nome": "Rota 1 — Ida",
  "pontos": [
    { "nome": "P1 - 6h10 | Cantinho da Viola", "lat": -22.960993547862227, "lon": -48.404019571757889 },
    { "nome": "P2 - Ponto Ônibus - Condomínio Alvorada", "lat": -22.955992342723256, "lon": -48.41731646486665 },
    { "nome": "P3 - Recuo Ecoterapia na Gastão Dal Farra", "lat": -22.954214442857754, "lon": -48.421357467013394 },
    { "nome": "P4 - Green Valley", "lat": -22.949693876238644, "lon": -48.427186919900265 },
    { "nome": "P5 - 6h20 | Green Valley", "lat": -22.949569164150102, "lon": -48.42572500263284 },
    { "nome": "P6 - Aluna com deficiência - auxilio | Green Valley", "lat": -22.9504097026744047, "lon": -48.425551703449244 },
    { "nome": "P7 - Green Valley", "lat": -22.952525054857322, "lon": -48.425551392669898 },
    { "nome": "E1 - Elda | CTEEP Subestação energia", "lat": -22.949677609533758, "lon": -48.43859497458661 },
    { "nome": "E2 - 6h35 | Rafaela Benato | 24 de Maio", "lat": -22.92262373666585, "lon": -48.44942925206166 },
    { "nome": "E3 - Sophia Gabriel | COHAB 1", "lat": -22.9163770074744066, "lon": -48.441221180002035 },
    { "nome": "E4 - Serrinha | COHAB 1", "lat": -22.9140047202072472, "lon": -48.43688103006206 },
    { "nome": "E5 - APAE | YASMIN | Descer e subir (levar até dentro da escola)", "lat": -22.893868469561845, "lon": -48.453956756789154 },
    { "nome": "E6 - Américo", "lat": -22.897565931105284, "lon": -48.447882578279035 }
  ],
  "vias": {},
  "avoidAreas": []
}
