{
  "rotas": [
    {
      "id": 1,
      "nome": "Rota 1 - Green Valley",
      "pontos": [
        { "ordem": 1,  "nome": "P1 - 6h10 | Cantinho da Viola", "lat": -22.960993547862227, "lon": -48.40401957175889, "obs": "" },
        { "ordem": 2,  "nome": "P2 - Ponto Ônibus - Condomínio Alvorada", "lat": -22.9559293242723256, "lon": -48.417316464868665, "obs": "" },
        { "ordem": 3,  "nome": "P3 - Recuo Ecoterapia na Gastão Dal Farra", "lat": -22.9542214442857754, "lon": -48.421357467013394, "obs": "" },
        { "ordem": 4,  "nome": "P4 - Green Valley", "lat": -22.9496893876238644, "lon": -48.427186919900265, "obs": "" },
        { "ordem": 5,  "nome": "P5 - 6h20 | Green Valley", "lat": -22.94955969164150102, "lon": -48.425725002632884, "obs": "" },
        { "ordem": 6,  "nome": "P6 - Aluna com deficiência - precisa de auxílio", "lat": -22.950452807026474047, "lon": -48.425551703449244, "obs": "Precisa de auxílio" },
        { "ordem": 7,  "nome": "P7 - Green Valley", "lat": -22.95258250548575322, "lon": -48.425513926689989, "obs": "" },
        { "ordem": 8,  "nome": "E1 - Elda | CTEEP Subestação energia", "lat": -22.949667706095335738, "lon": -48.43859497458661, "obs": "" },
        { "ordem": 9,  "nome": "E2 - 6h35 | Rafaela Benatto | 24 de Maio", "lat": -22.9226032733666585, "lon": -48.449429252006166, "obs": "" },
        { "ordem": 10, "nome": "E3 - Sophia Gabriel | COHAB 1", "lat": -22.916337807074740466, "lon": -48.44122118000235, "obs": "" },
        { "ordem": 11, "nome": "E4 - Serrinha | COHAB 1", "lat": -22.91400204702020742, "lon": -48.436888103006206, "obs": "" },
        { "ordem": 12, "nome": "E5 - APAE | YASMIN", "lat": -22.8938836486969561845, "lon": -48.453956756789154, "obs": "" },
        { "ordem": 13, "nome": "E6 - Américo", "lat": -22.897825659311050284, "lon": -48.4478825787279035, "obs": "" }
      ]
    }
  ]
}
